[
    {
        "code": 0,
        "data": {
            "stations": [
                {
                    "id": "S109",
                    "deviceId": "S109",
                    "name": "Ang Mo Kio Avenue 5",
                    "location": {
                        "latitude": 1.3764,
                        "longitude": 103.8492
                    }
                },
                {
                    "id": "S117",
                    "deviceId": "S117",
                    "name": "Banyan Road",
                    "location": {
                        "latitude": 1.256,
                        "longitude": 103.679
                    }
                },
                {
                    "id": "S50",
                    "deviceId": "S50",
                    "name": "Clementi Road",
                    "location": {
                        "latitude": 1.3337,
                        "longitude": 103.7768
                    }
                },
                {
                    "id": "S107",
                    "deviceId": "S107",
                    "name": "East Coast Parkway",
                    "location": {
                        "latitude": 1.3135,
                        "longitude": 103.9625
                    }
                },
                {
                    "id": "S43",
                    "deviceId": "S43",
                    "name": "Kim Chuan Road",
                    "location": {
                        "latitude": 1.3399,
                        "longitude": 103.8878
                    }
                },
                {
                    "id": "S108",
                    "deviceId": "S108",
                    "name": "Marina Gardens Drive",
                    "location": {
                        "latitude": 1.2799,
                        "longitude": 103.8703
                    }
                },
                {
                    "id": "S06",
                    "deviceId": "S06",
                    "name": "S06",
                    "location": {
                        "latitude": 1.3524,
                        "longitude": 103.9007
                    }
                },
                {
                    "id": "S102",
                    "deviceId": "S102",
                    "name": "Semakau Landfill",
                    "location": {
                        "latitude": 1.189,
                        "longitude": 103.768
                    }
                },
                {
                    "id": "S96",
                    "deviceId": "S96",
                    "name": "Tanah Merah Coast Road",
                    "location": {
                        "latitude": 1.3175,
                        "longitude": 104.0307
                    }
                },
                {
                    "id": "S24",
                    "deviceId": "S24",
                    "name": "Upper Changi Road North",
                    "location": {
                        "latitude": 1.3678,
                        "longitude": 103.9826
                    }
                },
                {
                    "id": "S100",
                    "deviceId": "S100",
                    "name": "Woodlands Road",
                    "location": {
                        "latitude": 1.4172,
                        "longitude": 103.74855
                    }
                }
            ],
            "readings": [
                {
                    "timestamp": "2016-11-26T00:00:59+08:00",
                    "data": [
                        {
                            "stationId": "S109",
                            "value": 99.2
                        },
                        {
                            "stationId": "S117",
                            "value": 78.8
                        },
                        {
                            "stationId": "S50",
                            "value": 93.5
                        },
                        {
                            "stationId": "S107",
                            "value": 88.3
                        },
                        {
                            "stationId": "S43",
                            "value": 92.7
                        },
                        {
                            "stationId": "S108",
                            "value": 89.8
                        },
                        {
                            "stationId": "S06",
                            "value": 94
                        },
                        {
                            "stationId": "S102",
                            "value": 82
                        },
                        {
                            "stationId": "S96",
                            "value": 80
                        },
                        {
                            "stationId": "S24",
                            "value": 94.1
                        },
                        {
                            "stationId": "S100",
                            "value": 94.9
                        }
                    ]
                }
            ],
            "readingType": "RH 1M F",
            "readingUnit": "percentage"
        },
        "errorMsg": ""
    }
]